{
  "type": "FeatureCollection",
  "features": [
    {
      "type": "Feature",
      "meta": {
        "color": "puce"
      },
      "properties": {
        "name": "Ãœberseetor",
        "scene": "ueberseetor",
        "id": 1
      },
      "geometry": {
        "type": "Point",
        "coordinates": [
          8.771351873874664,
          53.09422055711675
        ]
      }
    },
    {
      "type": "Feature",
      "meta": {
        "color": "puce"
      },
      "properties": {
        "name": "Europahafen",
        "scene": "europahafen",
        "id": 2
      },
      "geometry": {
        "type": "Point",
        "coordinates": [
          8.765995502471922,
          53.09412391687471
        ]
      }
    },
    {
      "type": "Feature",
      "meta": {
        "color": "puce"
      },
      "properties": {
        "name": "Speicher XI",
        "scene": "speicher11",
        "id": 3
      },
      "geometry": {
        "type": "Point",
        "coordinates": [
          8.7715744972229,
          53.096343366348854
        ]
      }
    },
    {
      "type": "Feature",
      "meta": {
        "color": "puce"
      },
      "properties": {
        "name": "Fabrikenufer",
        "scene": "fabrikenufer",
        "id": 4
      },
      "geometry": {
        "type": "Point",
        "coordinates": [
          8.773621022701263,
          53.09818262016042
        ]
      }
    },
    {
      "type": "Feature",
      "meta": {
        "color": "puce"
      },
      "properties": {
        "name": "Waller Wied",
        "scene": "waller_wied",
        "id": 5
      },
      "geometry": {
        "type": "Point",
        "coordinates": [
          8.774774372577667,
          53.09397573474871
        ]
      }
    },
    {
      "type": "Feature",
      "meta": {
        "color": "puce"
      },
      "properties": {
        "name": "Konsul-Smidt-Strasse",
        "scene": "konsul_smidt_str",
        "id": 6
      },
      "geometry": {
        "type": "Point",
        "coordinates": [
          8.772218227386475,
          53.09161441592877
        ]
      }
    }
  ]
}
